Latitude,Longitude,Place
18.516726,73.856255,Pune
12.972442,77.580643,Bangalore
13.067439,80.237617,Chennai
26.92207,75.778885,Jaipur
30.741482,76.768066,Chandigarh
12.9141,74.856,Mangalore
8.5241,76.9366,Trivandrum
12.2958,76.6394,Mysore
20.2961,85.8245,Bhuvaneswar
17.385,78.4867,Hyderabad
